[
  {
    "nom": "Pierre Augé",
    "nom_restaurant": "La Maison de Petit Pierre",
    "adresse": "22 avenue Pierre Verdier, 34500 Béziers, France",
    "ville": "Béziers",
    "latitude": 43.344297,
    "longitude": 3.2308641,
    "site_web": "https://www.lamaisondepetitpierre.fr/",
    "etoiles_michelin": 0
  },
  {
    "nom": "Stéphanie Le Quellec",
    "nom_restaurant": "La Scène",
    "adresse": "32 avenue Matignon, 75008 Paris, France",
    "ville": "Paris",
    "latitude": 48.8720354,
    "longitude": 2.314504,
    "site_web": "https://www.la-scene.paris/",
    "etoiles_michelin": 2
  },
  {
    "nom": "Pierre Sang Boyer",
    "nom_restaurant": "Pierre Sang in Oberkampf",
    "adresse": "55 rue Oberkampf, 75011 Paris, France",
    "ville": "Paris",
    "latitude": 48.8647051,
    "longitude": 2.3724235,
    "site_web": "https://pierresang.com/",
    "etoiles_michelin": 0
  },
  {
    "nom": "Ludovic Turac",
    "nom_restaurant": "Une Table au Sud",
    "adresse": "2 quai du Port, 13002 Marseille, France",
    "ville": "Marseille",
    "latitude": 43.2963677,
    "longitude": 5.373659,
    "site_web": "https://www.unetableausud.com/",
    "etoiles_michelin": 1
  },
  {
    "nom": "Tabata Bonardi",
    "nom_restaurant": "Ombellule",
    "adresse": "36 cours Franklin Roosevelt, 69006 Lyon, France",
    "ville": "Lyon",
    "latitude": 45.7687857,
    "longitude": 4.8469171,
    "site_web": "https://www.ombellule.fr/",
    "etoiles_michelin": 1
  },
  {
    "nom": "Norbert Tarayre",
    "nom_restaurant": "19.20 by Norbert Tarayre",
    "adresse": "33 avenue George V, 75008 Paris, France (hôtel Prince de Galles)",
    "ville": "Paris",
    "latitude": 48.8691274,
    "longitude": 2.3007665,
    "site_web": "https://www.19-20paris.fr/",
    "etoiles_michelin": 0
  },
  {
    "nom": "Denny Imbroisi",
    "nom_restaurant": "Ischia",
    "adresse": "14 rue Cauchy, 75015 Paris, France",
    "ville": "Paris",
    "latitude": 48.8429578,
    "longitude": 2.2759583,
    "site_web": "https://restaurant-ischia.com/",
    "etoiles_michelin": 0
  },
  {
    "nom": "Mehdi Kebboul",
    "nom_restaurant": "Le Savarin",
    "adresse": "4 rue de Navarin, 75009 Paris, France",
    "ville": "Paris",
    "latitude": 48.8795302,
    "longitude": 2.3396341,
    "site_web": "https://www.lapantruchoise.com/lesavarin",
    "etoiles_michelin": 0
  },
  {
    "nom": "Gérald Guille",
    "nom_restaurant": "Pureté",
    "adresse": "79 rue de la Monnaie, 59800 Lille, France",
    "ville": "Lille",
    "latitude": 50.6415293,
    "longitude": 3.0618541,
    "site_web": "https://www.restaurant-purete.com/fr/",
    "etoiles_michelin": 1
  },
  {
    "nom": "Naoëlle d'Hainaut",
    "nom_restaurant": "L'or Q'idée",
    "adresse": "6 rue de la Pierre aux Poissons, 95300 Pontoise, France",
    "ville": "Pontoise",
    "latitude": 49.050436,
    "longitude": 2.0977379,
    "site_web": "https://www.lorqidee.fr/",
    "etoiles_michelin": 1
  },
  {
    "nom": "Florent Ladeyn",
    "nom_restaurant": "Pigments",
    "adresse": "1 allée du Musée (LaM), 59650 Villeneuve-d'Ascq, France",
    "ville": "Villeneuve-d'Ascq",
    "latitude": 50.6375886,
    "longitude": 3.1511611,
    "site_web": "https://pigments.zensites.zenchef.com/",
    "etoiles_michelin": 0
  },
  {
    "nom": "Yoni Saada",
    "nom_restaurant": "Phénice",
    "adresse": "7 rue du Conservatoire, 75009 Paris, France (Hôtel De Nell)",
    "ville": "Paris",
    "latitude": 48.8731709,
    "longitude": 2.3467834,
    "site_web": "https://www.hoteldenell.com/restaurant-bar",
    "etoiles_michelin": 0
  },
  {
    "nom": "Thibault Sombardier",
    "nom_restaurant": "Anne",
    "adresse": "28 place des Vosges, 75003 Paris, France (Hôtel Pavillon de la Reine)",
    "ville": "Paris",
    "latitude": 48.8563739,
    "longitude": 2.3661099,
    "site_web": "https://www.pavillon-de-la-reine.com/restaurant",
    "etoiles_michelin": 1
  },
  {
    "nom": "Steven Ramon",
    "nom_restaurant": "Rouge Barre",
    "adresse": "50 rue de la Halle, 59800 Lille, France",
    "ville": "Lille",
    "latitude": 50.6443664,
    "longitude": 3.0594052,
    "site_web": "https://www.rougebarre.fr/",
    "etoiles_michelin": 0
  },
  {
    "nom": "Christophe Pirotais",
    "nom_restaurant": "Mieux qu'à la Maison (MQLM)",
    "adresse": "137 rue du Général Leclerc, 95320 Saint-Leu-la-Forêt, France",
    "ville": "Saint-Leu-la-Forêt",
    "latitude": 49.0208265,
    "longitude": 2.2387495,
    "site_web": "https://mieuxqualamaison.com/",
    "etoiles_michelin": 0
  },
  {
    "nom": "Mohamed Si Abdelkader",
    "nom_restaurant": "Médley",
    "adresse": "72 route de Pontoise, 95100 Argenteuil, France",
    "ville": "Argenteuil",
    "latitude": 48.947236,
    "longitude": 2.2061686,
    "site_web": "https://medley-si.netlify.app/",
    "etoiles_michelin": 0
  },
  {
    "nom": "Vanessa Robuschi",
    "nom_restaurant": "Question de Goût",
    "adresse": "147 avenue Joseph Vidal, 13008 Marseille, France",
    "ville": "Marseille",
    "latitude": 43.2516822,
    "longitude": 5.3781947,
    "site_web": "https://unequestiondegout.fr/fr",
    "etoiles_michelin": 0
  },
  {
    "nom": "Joy-Astrid Poinsot",
    "nom_restaurant": "Chez Camille",
    "adresse": "1 place Édouard Herriot, 21230 Arnay-le-Duc, France",
    "ville": "Arnay-le-Duc",
    "latitude": 47.1337388,
    "longitude": 4.4860426,
    "site_web": "https://www.chezcamillearnay.com/",
    "etoiles_michelin": 0
  },
  {
    "nom": "Jérémie Izarn",
    "nom_restaurant": "La Tour des Sens",
    "adresse": "Route de Theys, 38570 Tencin, France",
    "ville": "Tencin",
    "latitude": 45.3134683,
    "longitude": 5.9655763,
    "site_web": "https://latourdessens.fr/",
    "etoiles_michelin": 0
  },
  {
    "nom": "Alexis Delassaux",
    "nom_restaurant": "Luz Verde",
    "adresse": "24 rue Henry Monnier, 75009 Paris, France",
    "ville": "Paris",
    "latitude": 48.8803935,
    "longitude": 2.3376028,
    "site_web": "https://luzverde.fr/",
    "etoiles_michelin": 0
  },
  {
    "nom": "Carl Dutting",
    "nom_restaurant": "Bella",
    "adresse": "2 rue Brougham, square Mistral, 06400 Cannes, France (Hôtel & Spa Belle Plage)",
    "ville": "Cannes",
    "latitude": 43.549483,
    "longitude": 7.007531,
    "site_web": "https://www.hotelbelleplage.fr/fr/page/restaurant-rooftop-cannes.12413.html",
    "etoiles_michelin": 0
  },
  {
    "nom": "Camille Delcroix",
    "nom_restaurant": "Bacôve",
    "adresse": "8 rue Caventou, 62500 Saint-Omer, France",
    "ville": "Saint-Omer",
    "latitude": 50.7482609,
    "longitude": 2.2553606,
    "site_web": "https://restaurant-bacove.com/fr/",
    "etoiles_michelin": 1
  },
  {
    "nom": "Adrien Descouls",
    "nom_restaurant": "Origines",
    "adresse": "Rue du clos de la Chaux, 63500 Le Broc, France (Issoire)",
    "ville": "Le Broc",
    "latitude": 45.5014095,
    "longitude": 3.2436174,
    "site_web": "https://restaurant-origines.fr/fr/",
    "etoiles_michelin": 1
  },
  {
    "nom": "Damien Laforce",
    "nom_restaurant": "Le Braque",
    "adresse": "45 rue de la Monnaie, 59000 Lille, France",
    "ville": "Lille",
    "latitude": 50.6410463,
    "longitude": 3.0627196,
    "site_web": "https://www.le-braque.fr/",
    "etoiles_michelin": 0
  },
  {
    "nom": "Camille Maury",
    "nom_restaurant": "Maison Nouvelle",
    "adresse": "11 rue Rode, 33000 Bordeaux, France",
    "ville": "Bordeaux",
    "latitude": 44.8524933,
    "longitude": -0.5720934,
    "site_web": "https://maison-nouvelle.fr/",
    "etoiles_michelin": 2
  },
  {
    "nom": "Baptiste Renouard",
    "nom_restaurant": "Ochre",
    "adresse": "56 rue du Gué, 92500 Rueil-Malmaison, France",
    "ville": "Rueil-Malmaison",
    "latitude": 48.8778387,
    "longitude": 2.1830535,
    "site_web": "https://ochre.fr/",
    "etoiles_michelin": 1
  },
  {
    "nom": "Anissa Boulesteix",
    "nom_restaurant": "Le Jardin Alpin (Cheval Blanc)",
    "adresse": "Le Jardin Alpin, Courchevel 1850, 73120 Courchevel, France (Hôtel Cheval Blanc)",
    "ville": "Courchevel",
    "latitude": 45.4094877,
    "longitude": 6.6338696,
    "site_web": "https://www.chevalblanc.com/",
    "etoiles_michelin": 3
  },
  {
    "nom": "Marie-Victorine Manoa",
    "nom_restaurant": "La Fontaine Gaillon",
    "adresse": "1 rue de la Michodière, 75002 Paris, France",
    "ville": "Paris",
    "latitude": 48.8691078,
    "longitude": 2.3344279,
    "site_web": "https://www.fitz-group.fr/fontaine-gaillon-paris",
    "etoiles_michelin": 0
  },
  {
    "nom": "Adrien Cachot",
    "nom_restaurant": "Le Vaisseau",
    "adresse": "35 rue Faidherbe, 75011 Paris, France",
    "ville": "Paris",
    "latitude": 48.8531937,
    "longitude": 2.3825854,
    "site_web": "https://www.restaurant-vaisseau.com/",
    "etoiles_michelin": 0
  },
  {
    "nom": "Jean-Philippe Berens",
    "nom_restaurant": "Ducasse sur Seine",
    "adresse": "19 Port Debilly, 75016 Paris, France",
    "ville": "Paris",
    "latitude": 48.8604329,
    "longitude": 2.2917343,
    "site_web": "https://ducasse-seine.com/fr",
    "etoiles_michelin": 0
  },
  {
    "nom": "Mohamed Cheikh",
    "nom_restaurant": "Meïda",
    "adresse": "10 place de la République, 93400 Saint-Ouen-sur-Seine, France",
    "ville": "Saint-Ouen-sur-Seine",
    "latitude": 48.9117906,
    "longitude": 2.3331565,
    "site_web": "https://www.meida.fr/",
    "etoiles_michelin": 0
  },
  {
    "nom": "Sarah Mainguy",
    "nom_restaurant": "Freia",
    "adresse": "22 boulevard de Berlin, 44000 Nantes, France",
    "ville": "Nantes",
    "latitude": 47.2167806,
    "longitude": -1.5366484,
    "site_web": "https://www.freia-restaurant.com/",
    "etoiles_michelin": 0
  },
  {
    "nom": "Baptiste Trudel",
    "nom_restaurant": "Halo",
    "adresse": "12 rue Saint-Sauveur, 75002 Paris, France",
    "ville": "Paris",
    "latitude": 48.8660178,
    "longitude": 2.3488601,
    "site_web": "https://www.halo-paris.com/",
    "etoiles_michelin": 0
  },
  {
    "nom": "Jarvis Scott",
    "nom_restaurant": "Turbulent",
    "adresse": "1 rue Durand Couyère, 14360 Trouville-sur-Mer, France",
    "ville": "Trouville-sur-Mer",
    "latitude": 49.364229,
    "longitude": 0.0836106,
    "site_web": "https://turbulent-trouville.com/fr",
    "etoiles_michelin": 0
  },
  {
    "nom": "Adrien Zedda",
    "nom_restaurant": "Culina Hortus",
    "adresse": "38 rue de l'Arbre Sec, 69001 Lyon, France",
    "ville": "Lyon",
    "latitude": 45.7666794,
    "longitude": 4.8373615,
    "site_web": "https://www.culinahortus.com/",
    "etoiles_michelin": 0
  },
  {
    "nom": "Sébastien Renard",
    "nom_restaurant": "Maison Renard",
    "adresse": "15 place de la République, boulevard Kitchener, 62400 Béthune, France",
    "ville": "Béthune",
    "latitude": 50.5323226,
    "longitude": 2.6407399,
    "site_web": "https://www.maisonrenard-bethune.fr/",
    "etoiles_michelin": 0
  },
  {
    "nom": "Thibaut Spiwack",
    "nom_restaurant": "Anona",
    "adresse": "80 boulevard des Batignolles, 75017 Paris, France",
    "ville": "Paris",
    "latitude": 48.8819703,
    "longitude": 2.3187122,
    "site_web": "https://www.anona.fr/",
    "etoiles_michelin": 1
  },
  {
    "nom": "Lilian Douchet",
    "nom_restaurant": "Le Capucine",
    "adresse": "480 route du Bois du Breuil, 14600 Pennedepie, France",
    "ville": "Pennedepie",
    "latitude": 49.4037071,
    "longitude": 0.1783194,
    "site_web": "https://jardins-coppelia.com/fr/produits/5526037231774466085/5526040324209639461/5528439191639162917",
    "etoiles_michelin": 0
  },
  {
    "nom": "Ambroise Voreux",
    "nom_restaurant": "La Cabane à Matelot",
    "adresse": "19 avenue du 11 Novembre, 37130 Bréhémont, France",
    "ville": "Bréhémont",
    "latitude": 47.295309,
    "longitude": 0.353658,
    "site_web": "https://les-pecheries-ligeriennes.fr/",
    "etoiles_michelin": 0
  },
  {
    "nom": "Renaud Ramamourty",
    "nom_restaurant": "Petrossian",
    "adresse": "13 boulevard de la Tour-Maubourg, 75007 Paris, France",
    "ville": "Paris",
    "latitude": 48.8609742,
    "longitude": 2.3104452,
    "site_web": "https://restaurant.petrossian.fr/",
    "etoiles_michelin": 0
  },
  {
    "nom": "Valentin Raffali",
    "nom_restaurant": "Bus Palladium",
    "adresse": "6 rue Pierre Fontaine, 75009 Paris, France",
    "ville": "Paris",
    "latitude": 48.8807709,
    "longitude": 2.3349113,
    "site_web": "https://www.buspalladium.com/",
    "etoiles_michelin": 0
  },
  {
    "nom": "Anicée Lacrouts",
    "nom_restaurant": "La Table",
    "adresse": "13 vieille route des Pensières, 74290 Veyrier-du-Lac, France",
    "ville": "Veyrier-du-Lac",
    "latitude": 45.8889235,
    "longitude": 6.1721868,
    "site_web": "https://yoann-conte.com/la-table-de-yoann-conte/",
    "etoiles_michelin": 2
  },
  {
    "nom": "Quentin Mauro",
    "nom_restaurant": "Restaurant Donna",
    "adresse": "157 rue Saint-Martin, 75003 Paris, France",
    "ville": "Paris",
    "latitude": 48.8622221,
    "longitude": 2.3518817,
    "site_web": "https://www.donna-paris.com/",
    "etoiles_michelin": 0
  },
  {
    "nom": "Grégoire Touchard",
    "nom_restaurant": "Pavyllon Paris",
    "adresse": "Pavillon Ledoyen, 8 avenue Dutuit, 75008 Paris, France",
    "ville": "Paris",
    "latitude": 48.8660193,
    "longitude": 2.315754,
    "site_web": "https://www.yannick-alleno.com/les-etablissements-du-groupe/pavyllon-paris",
    "etoiles_michelin": 1
  },
  {
    "nom": "Ilane Tinchant",
    "nom_restaurant": "L'Oursin",
    "adresse": "1 boulevard des Moulins, 13620 Carry-le-Rouet, France",
    "ville": "Carry-le-Rouet",
    "latitude": 43.3297339,
    "longitude": 5.1512273,
    "site_web": "https://www.hotelbleucarry.com/fr/restaurant-et-bar.html",
    "etoiles_michelin": 1
  },
  {
    "nom": "Charles Neyers",
    "nom_restaurant": "Le Boréal",
    "adresse": "39 rue Montcalm, 75018 Paris, France",
    "ville": "Paris",
    "latitude": 48.893816,
    "longitude": 2.3390239,
    "site_web": "https://www.leborealparis.com/",
    "etoiles_michelin": 0
  },
  {
    "nom": "Esteban Salazar",
    "nom_restaurant": "Le Tilleul",
    "adresse": "1 rue du Château-du-Theil, 19200 Ussel, France",
    "ville": "Ussel",
    "latitude": 45.5564317,
    "longitude": 2.3268836,
    "site_web": "https://www.chateaudutheil.com/",
    "etoiles_michelin": 0
  },
  {
    "nom": "Claudio Semedo Borges",
    "nom_restaurant": "Prince de Galles",
    "adresse": "33 avenue George V, 75008 Paris, France",
    "ville": "Paris",
    "latitude": 48.8691274,
    "longitude": 2.3007665,
    "site_web": "https://www.marriott.com/fr/hotels/parlc-prince-de-galles-a-luxury-collection-hotel-paris/overview/",
    "etoiles_michelin": 0
  },
  {
    "nom": "Steven Thiebault-Pellegrino",
    "nom_restaurant": "Leptine",
    "adresse": "16 rue Hippolyte Flandrin, 69001 Lyon, France",
    "ville": "Lyon",
    "latitude": 45.7680321,
    "longitude": 4.8306177,
    "site_web": "https://www.leptine.fr/",
    "etoiles_michelin": 0
  },
  {
    "nom": "Noémie Cadré",
    "nom_restaurant": "Caravane Palace",
    "adresse": "13 rue Saint-Georges, 35000 Rennes, France",
    "ville": "Rennes",
    "latitude": 48.1118335,
    "longitude": -1.676539,
    "site_web": "https://www.caravanepalace.pro/",
    "etoiles_michelin": 0
  },
  {
    "nom": "Nicolas Parage",
    "nom_restaurant": "Prévelle",
    "adresse": "34 rue Saint-Dominique, 75007 Paris, France",
    "ville": "Paris",
    "latitude": 48.8599844,
    "longitude": 2.3154233,
    "site_web": "https://prevelle.fr/",
    "etoiles_michelin": 1
  },
  {
    "nom": "Dylan Bury",
    "nom_restaurant": "Maison Rostang",
    "adresse": "20 rue Rennequin, Paris, 75017, France",
    "ville": "Paris",
    "latitude": 48.881407,
    "longitude": 2.2985363,
    "site_web": "https://www.maisonrostang.com/",
    "etoiles_michelin": 2
  },
  {
    "nom": "Antoine Garcia",
    "nom_restaurant": "Le Clos des Sens",
    "adresse": "13 rue Jean-Mermoz - à Annecy-le-Vieux, Annecy, 74940, France",
    "ville": "Annecy",
    "latitude": 45.9176317,
    "longitude": 6.1445765,
    "site_web": "https://www.closdessens.com/",
    "etoiles_michelin": 3
  },
  {
    "nom": "Alexy Algar-Denos",
    "nom_restaurant": "L'Almandin",
    "adresse": "Boulevard de l'Almandin, St-Cyprien Sud, Saint-Cyprien, 66750, France",
    "ville": "Saint-Cyprien",
    "latitude": 42.6095379,
    "longitude": 3.036187,
    "site_web": "https://www.almandin.fr/",
    "etoiles_michelin": 1
  },
  {
    "nom": "Matteo Pioppi",
    "nom_restaurant": "Blanc",
    "adresse": "52 rue de Longchamp, Paris, 75116, France",
    "ville": "Paris",
    "latitude": 48.8651172,
    "longitude": 2.2874808,
    "site_web": "https://blanc-paris.com/",
    "etoiles_michelin": 1
  },
  {
    "nom": "Tom Paduano",
    "nom_restaurant": "Le Feuillée - Le Couvent des Minimes",
    "adresse": "Chemin des Jeux-de-Maï, Mane, 04300, France",
    "ville": "Mane",
    "latitude": 43.9395915,
    "longitude": 5.7723757,
    "site_web": "https://www.couventdesminimes-hotelspa.com/",
    "etoiles_michelin": 1
  },
  {
    "nom": "Victor Kuntz",
    "nom_restaurant": "Ida",
    "adresse": "117 rue de Vaugirard, 75015 Paris, France",
    "ville": "Paris",
    "latitude": 48.8447004,
    "longitude": 2.3190024,
    "site_web": "https://www.restaurant-ida.com/",
    "etoiles_michelin": 0
  },
  {
    "nom": "Viviana Pisacane",
    "nom_restaurant": "Le Bœuf d'Argent",
    "adresse": "29 rue du Bœuf, Lyon, 69005, France",
    "ville": "Lyon",
    "latitude": 45.762197,
    "longitude": 4.8264533,
    "site_web": "https://restaurant-leboeufdargent.com/",
    "etoiles_michelin": 0
  }
]
